[
 {
  "Province": "İstanbul",
  "District": "Zeytinburnu",
  "Name": "Zeytinburnu Belediyesi Atölye ve Garajlar Şefliği",
  "Adress": "Kazlıçeşme, Seyit Nizam Cd. No:218, 34020 Zeytinburnu\/İstanbul",
  "Location": "41.00567926386703, 28.9195853512241",
  "Phone": "444 19 84"
 },
 {
  "Province": "İstanbul",
  "District": "Arnavutköy",
  "Name": "ASYAM Taşoluk Binası",
  "Adress": "Mehmet Akif Ersoy, Atatürk Cd. No: 79, 34283 Arnavutköy\/İstanbul",
  "Location": "41.21034653710663, 28.71844212136673"
 },
 {
  "Province": "İstanbul",
  "District": "Ataşehir",
  "Name": "Ataşehir Afet Koordinasyon Merkezi (AKOM)",
  "Adress": "Ataşehir Atatürk, Ataşehir Blv. No:1\/6, 34758 Ataşehir\/İstanbu",
  "Location": "40.99301420467836, 29.116929930143478",
  "Phone": "(0216) 570 50 00"
 },
 {
  "Province": "İstanbul",
  "District": "Ataşehir",
  "Name": "Novada AVM Cemal Süreya Etkinlik Merkezi",
  "Adress": "Atatürk Mahallesi Novada Outlet AVM, 09207 Ataşehir\/İstanbul",
  "Location": "40.98725723494386, 29.122496856856817"
 },
 {
  "Province": "İstanbul",
  "District": "Ataşehir",
  "Name": "Ferhatpaşa Taziyevi",
  "Adress": "Esatpasa, Ziya Paşa Cd. No:44, 34704 Ataşehir\/İstanbul",
  "Location": "41.00105936230095, 29.08631804090568"
 },
 {
  "Province": "İstanbul",
  "District": "Ataşehir",
  "Name": "İçerenköy Neşet Ertaş Kültürevi",
  "Adress": "İçerenköy, Alanaldı Cd. 1-3, 34752 Ataşehir\/İstanbul",
  "Location": "40.969191471210706, 29.11649303213267"
 },
 {
  "Province": "İstanbul",
  "District": "Ataşehir",
  "Name": "İBB Deprem Parkı (Deniz Gezmiş Parkı)",
  "Adress": "Mustafa Kemal, Deprem, Park İçi Yolu, 34707 Ataşehir\/İstanbul",
  "Location": "40.99988369187697, 29.095303680016336"
 },
 {
  "Province": "İstanbul",
  "District": "Avcılar",
  "Name": "Firuzköy Atatürk Stadı",
  "Adress": "Firuzköy, Öztan Sokağı No:1, 34325 Avcılar\/İstanbul",
  "Location": "41.013509600415155, 28.700356000268787"
 },
 {
  "Province": "İstanbul",
  "District": "Bağcılar",
  "Name": "Mahmutbey Mahallesi Osmanlı Arşivi",
  "Adress": "Talatpaşa, İmrahor Caddesi 33 34400, 34218 Bağcılar\/İstanbul",
  "Location": "41.047808141159955, 28.819768666685057"
 },
 {
  "Province": "İstanbul",
  "District": "Bağcılar",
  "Name": "Göztepe Spor Kompleksi",
  "Adress": "Göztepe, 34214 Bağcılar\/İstanbul",
  "Location": "41.05826259445303, 28.837432304837808"
 },
 {
  "Province": "İstanbul",
  "District": "Bağcılar",
  "Name": "Yüzyıl Spor Kompleksi",
  "Adress": "100. Yıl, 2162. Sk. No:1, 34204 Bağcılar\/İstanbul",
  "Location": "41.06145488583858, 28.8521418893275"
 },
 {
  "Province": "İstanbul",
  "District": "Bağcılar",
  "Name": "Bağcılar Gençlik Merkezi",
  "Adress": "Yıldıztepe Mahallesi, 464 Sk. No 4, 34203 Bağcılar\/İstanbul",
  "Location": "41.0266616280434, 28.8570549597002"
 },
 {
  "Province": "İstanbul",
  "District": "Bağcılar",
  "Name": "Şehit Savcı Mehmet Selim Kiraz Kültür Merkezi",
  "Adress": "Sancaktepe 934 Sok No:3, 34200 Bağcılar\/İstanbul",
  "Location": "41.03841463714222, 28.855400038214455"
 },
 {
  "Province": "İstanbul",
  "District": "Bahçelievler",
  "Name": "Bahçelievler Belediyesi Kongre ve Nikah Sarayı Kapalı Otoparkı",
  "Adress": "Kocasinan Merkez, 34186 Bahçelievler\/İstanbul",
  "Location": "41.01868355305587, 28.84710532819025"
 },
 {
  "Province": "İstanbul",
  "District": "Bakırköy",
  "Name": "Bakırköy Belediyesi Atatürk Spor ve Yaşam Köyü Kapalı Spor Salonu",
  "Adress": "Osmaniye, 34146 Bakırköy\/İstanbul",
  "Location": "40.99704190153451, 28.884147981533854"
 },
 {
  "Province": "İstanbul",
  "District": "Başakşehir",
  "Name": "Başakpazar Fuar ve Sergi Alanı",
  "Adress": "Kayabaşı, Kayaşehir Bulvarı No:3, 34494 Başakşehir\/İstanbul",
  "Location": "41.11157414764871, 28.80985849355507"
 },
 {
  "Province": "İstanbul",
  "District": "Başakşehir",
  "Name": "Kayakşehir Fuar ve Sergi Alanı",
  "Adress": "Kayabaşı Mahallesi Rabia Caddesi, Eflatun Sokak No:1, 34494 Başakşehir\/İstanbul",
  "Location": "41.1051133893084, 28.759245099301747"
 },
 {
  "Province": "İstanbul",
  "District": "Başakşehir",
  "Name": "Bahçeşehir Pazartürk Fuar ve Sergi Alanı",
  "Adress": "Bahçeşehir 2. Kısım, Atatürk Blv., 34000 Başakşehir\/İstanbul",
  "Location": "41.07981384860443, 28.679566522367768"
 },
 {
  "Province": "İstanbul",
  "District": "Bayrampaşa",
  "Name": "Semih Erden Spor Kompleksi ve Muhtarlıklar",
  "Adress": "Kartaltepe, 50. Yıl Cd No:85, 34040 Bayrampaşa\/İstanbul",
  "Location": "41.057008239824995, 28.89540064871098"
 },
 {
  "Province": "İstanbul",
  "District": "Beşiktaş",
  "Name": "Mustafa Kemal Merkezi (MKM)",
  "Adress": "Akat, Uğur Mumcu Cd. No:8 D:No:8, 34335 Beşiktaş\/İstanbul",
  "Location": "41.092046978064744, 29.02815879492148"
 },
 {
  "Province": "İstanbul",
  "District": "Beykoz",
  "Name": "Çubuklu Atatürk İlköğretim Okulu Spor Salonu",
  "Adress": "Çubuklu, Vatan Cd. No:2, 34805 Beykoz\/İstanbul",
  "Location": "41.099201076887226, 29.09191229356965"
 },
 {
  "Province": "İstanbul",
  "District": "Beylikdüzü",
  "Name": "Cumhuriyet Mah. Erdemli Cad. No: 4",
  "Adress": "Cumhuriyet, Erdemli Sk. No:4, 34520 Beylikdüzü\/İstanbul",
  "Location": "41.01225801406422, 28.634846138248175"
 },
 {
  "Province": "İstanbul",
  "District": "Beyoğlu",
  "Name": "Beyoğlu Belediyesi Sosyal Market",
  "Adress": "Küçük Piyale, Yeni Yol Ara Sk. No:3, 34440 Beyoğlu\/İstanbul",
  "Location": "41.03575862986828, 28.96771773614271"
 },
 {
  "Province": "İstanbul",
  "District": "Beyoğlu",
  "Name": "Sosyal Yardımlaşma Vakfı",
  "Adress": "Küçük Piyale, Kızılay Meydanı Cd. NO:24 \/ 26, 34440 Beyoğlu\/İstanbul",
  "Location": "41.03432441953206, 28.966050687778374"
 },
 {
  "Province": "İstanbul",
  "District": "Beyoğlu",
  "Name": "Aynalıkavak Semt Konağı",
  "Adress": "Keçeci Piri, 18, Toygar Sk., 34445 Beyoğlu\/İstanbul",
  "Location": "41.039489584174106, 28.955927527392827"
 },
 {
  "Province": "İstanbul",
  "District": "Beyoğlu",
  "Name": "Hasköy Kültür ve Gösteri Merkezi",
  "Adress": "Piri Paşa, şabandere caddesi, 34445 Beyoğlu\/İstanbul",
  "Location": "41.0439871794311, 28.951414658606744"
 },
 {
  "Province": "İstanbul",
  "District": "Büyükçekmece",
  "Name": "Büyükçekmece Belediyesi Hizmet Binası",
  "Adress": "Güneşli, Cumhuriyet Cd. No:99, 34212 Bağcılar\/İstanbul",
  "Location": "41.031783451711, 28.83379419805639"
 },
 {
  "Province": "İstanbul",
  "District": "Büyükçekmece",
  "Name": "Kumburgaz Ek Hizmet Binası",
  "Adress": "Kumburgaz Mah, İmrahor Cd. No:3, 34530 Büyükçekmece\/İstanbul",
  "Location": "41.03067048104422, 28.452569497073966"
 },
 {
  "Province": "İstanbul",
  "District": "Büyükçekmece",
  "Name": "Büyükçekmece AKM",
  "Adress": "Fatih Mah, Kuba Camii Yanı, Gazi Mustafa Cd No: 43, 34500 Büyükçekmece\/İstanbul",
  "Location": "41.01759953248326, 28.592509108100536"
 },
 {
  "Province": "İstanbul",
  "District": "Çekmeköy",
  "Name": "Cumhuriyet Mahallesi Adnan Menderes Kültür Merkezi",
  "Adress": "Cumhuriyet, 8, Demokrasi Cd., 34788 Çekmeköy\/İstanbul",
  "Location": "41.022141256043426, 29.223011985785075"
 },
 {
  "Province": "İstanbul",
  "District": "Çekmeköy",
  "Name": "Hamidiye Mahallesi Hamidiye Kültür Merkezi",
  "Adress": "Hamidiye, Ümit Sk. No: 4, 34782 Çekmeköy\/İstanbul",
  "Location": "41.02235124585329, 29.189738376569288"
 },
 {
  "Province": "İstanbul",
  "District": "Esenler",
  "Name": "Esenler Belediyesi Deposu",
  "Adress": "Birlik, Mehmet Akif İnan Cd. 6-8, 34230 Esenler\/İstanbul",
  "Location": "41.05397815798561, 28.867727595260835"
 },
 {
  "Province": "İstanbul",
  "District": "Esenyurt",
  "Name": "İstiklal Cami Kapalı Pazar ve Otoparkı",
  "Adress": "Yenikent, Balık Yolu Cd. No:1, 34517 Esenyurt\/İstanbul",
  "Location": "41.04183869432389, 28.683210469952595"
 },
 {
  "Province": "İstanbul",
  "District": "Esenyurt",
  "Name": "Çınar\/Örnek Kültür Merkezi",
  "Adress": "Örnek, 34517 Esenyurt\/İstanbul",
  "Location": "41.03797917078801, 28.665323265305034"
 },
 {
  "Province": "İstanbul",
  "District": "Esenyurt",
  "Name": "Yenikent Kültür Merkezi",
  "Adress": "Yenikent, 679. Sk. no:1, 34510 Esenyurt\/İstanbul",
  "Location": "41.03988855480609, 28.678033649884785"
 },
 {
  "Province": "İstanbul",
  "District": "Esenyurt",
  "Name": "Sarıkamış Kültür Merkezi",
  "Adress": "İncirtepe, 285. Sk. No:8, 34510 Beylikdüzü Osb\/Esenyurt\/İstanbul",
  "Location": "41.02396406504963, 28.69619790001933"
 },
 {
  "Province": "İstanbul",
  "District": "Esenyurt",
  "Name": "Saadetdere Gençlik Merkezi",
  "Adress": "Saadetdere, 5. Sk. No:108, 34513 Beylikdüzü Organize Sanayi Bölgesi\/Esenyurt\/Esenyurt\/İstanbul",
  "Location": "41.007682825371724, 28.69545524138443"
 },
 {
  "Province": "İstanbul",
  "District": "Esenyurt",
  "Name": "Esenkent Kültür Merkezi",
  "Adress": "Esenkent, Süleyman Demirel Cd. No:32, 34510 Esenyurt\/İstanbul",
  "Location": "41.06215866421511, 28.67867644107222"
 },
 {
  "Province": "İstanbul",
  "District": "Eyüp",
  "Name": "White Hall AVM",
  "Adress": "Karadolap Mah., Mustafa Kemal Bulvari No:13, 34065 Eyüp\/Eyüpsultan\/İstanbul",
  "Location": "41.0797350256457, 28.931092251428566"
 },
 {
  "Province": "İstanbul",
  "District": "Eyüp",
  "Name": "Göktürk Kültür Merkezi",
  "Adress": "Göktürk Merkez, Belediye Cad. & Açelya Sok. 2\/B, 34077 Eyüp\/Eyüpsultan\/İstanbul",
  "Location": "41.17985658961909, 28.886465017616853"
 },
 {
  "Province": "İstanbul",
  "District": "Eyüp",
  "Name": "Eyüpsultan Sosyal Destek Hizmetleri Müdürlüğü",
  "Adress": "Düğmeciler, Düğmeciler Cd. No:19, 34055 Eyüpsultan\/İstanbul",
  "Location": "41.04753855235361, 28.927799779180425"
 },
 {
  "Province": "İstanbul",
  "District": "Fatih ",
  "Name": "Kaleiçi Topkapı Sosyal Tesisleri Otoparkı",
  "Adress": "Topkapı Mahallesii Paşa odaları sokak, Kaleiçi, 34093 Fatih",
  "Location": "41.01993290413073, 28.92514460529556"
 },
 {
  "Province": "İstanbul",
  "District": "Esenyurt",
  "Name": "Akçaburgaz Kültür Merkezi",
  "Adress": "Akçaburgaz, Halil Fahri Orman Cd., 34522 Esenyurt\/İstanbul",
  "Location": "41.07719642305889, 28.632876588061237"
 },
 {
  "Province": "İstanbul",
  "District": "Sancaktepe",
  "Name": "Şehit Erol Olçok Kültür Merkezi",
  "Adress": "Umut Sokak No:2\/1D",
  "Location": "41.01057921810033, 29.243026476603543"
 },
 {
  "Province": "İstanbul",
  "District": "Esenyurt",
  "Name": "Nene Hatun Kültür Merkezi",
  "Adress": "Güzelyurt, Yıldırım Beyazıt Cd. No:45, 34515 Esenyurt\/İstanbul",
  "Location": "41.01093363677605, 28.66568345910028"
 },
 {
  "Province": "İstanbul",
  "District": "Esenyurt",
  "Name": "Yunus Balta Kültür Merkezi",
  "Adress": "Mevlana Mahallesi, Sultan Vahdettin Caddesi, 34515 Esenyurt\/İstanbul",
  "Location": "41.0151256108224, 28.65205916557532"
 },
 {
  "Province": "İstanbul",
  "District": "Esenyurt",
  "Name": "Kadın Sosyal Yaşam Merkezi",
  "Adress": "Merkez, 1103. Sk., 34517 Esenyurt\/İstanbul",
  "Location": "41.0347164669667, 28.677712765722806"
 },
 {
  "Province": "İstanbul",
  "District": "Gaziosmanpaşa",
  "Name": "Gaziosmanpaşa Belediyesi Yüzme Havuzu ve Spor Kompleksi",
  "Adress": "Fevzi Çakmak, Kemal Şeker Blv. No:3, 34065 Gaziosmanpaşa\/İstanbul",
  "Location": "41.072775352365554, 28.913998313950877"
 },
 {
  "Province": "İstanbul",
  "District": "Güngören ",
  "Name": "Köyiçi Spor Kompleksi Otoparkı",
  "Adress": "Merkez, Fevzi Çakmak Cd. No:17, 34164 Güngören\/İstanbul",
  "Location": "41.023812318364065, 28.871056807692824"
 },
 {
  "Province": "İstanbul",
  "District": "Kadıköy",
  "Name": "Kadıköy Belediyesi Başkanlık Binası",
  "Adress": "Hasanpaşa, Fahrettin Kerim Gökay Cd. No:2, 34722 Kadıköy\/İstanbul",
  "Location": "40.99369963444672, 29.03700569830502"
 },
 {
  "Province": "İstanbul",
  "District": "Kağıthane ",
  "Name": "Kağıthane Nikah Salonu",
  "Adress": "Merkez, No:1, Sadabat Cd. Sadabad Kültür Mrk., 34406 Kâğıthane\/İstanbul",
  "Location": "41.07967747960008, 28.971940683268386"
 },
 {
  "Province": "İstanbul",
  "District": "Kağıthane ",
  "Name": "Gültepe Kültür Merkezi",
  "Adress": "Gültepe, Talatpaşa Cd. No:163, 34410 Kâğıthane\/İstanbul",
  "Location": "41.07829916879486, 28.9970667892737"
 },
 {
  "Province": "İstanbul",
  "District": "Kağıthane ",
  "Name": "Yahya Kemal Spor Kompleksi",
  "Adress": "Yahya Kemal Mah, Güzeldere Cd No:10, 34410 Kâğıthane\/İstanbul",
  "Location": "41.08621270129984, 28.987561369190164"
 },
 {
  "Province": "İstanbul",
  "District": "Kağıthane ",
  "Name": "Sultan Selim Kültür Merkezi",
  "Adress": "Sanayi, Şenkardeşler Sk. No:21, 34415 Kâğıthane\/İstanbul",
  "Location": "41.089119018143975, 28.99957961469878"
 },
 {
  "Province": "İstanbul",
  "District": "Kağıthane ",
  "Name": "Hamidiye Spor Kompleksi",
  "Adress": "Hamidiye, 34408 Kâğıthane\/İstanbul",
  "Location": "41.09471151959166, 28.97106660309809"
 },
 {
  "Province": "İstanbul",
  "District": "Kağıthane ",
  "Name": "Seyrantepe Kültür Merkezi",
  "Adress": "Sanayi, Şenkardeşler Sk. No:21, 34415 Kâğıthane\/İstanbul",
  "Location": "41.08911609472532, 28.99955807243855"
 },
 {
  "Province": "İstanbul",
  "District": "Kartal",
  "Name": "Kartal Ekolojik Pazar",
  "Adress": "Yukarı, No:, İstasyon Cd. No:2, 34860 Kartal",
  "Location": "40.888013415181675, 29.18491709846501"
 },
 {
  "Province": "İstanbul",
  "District": "Küçükçekmece",
  "Name": "Küçükçekmece Kütüphaneleri",
  "Adress": "Atakent Mah., Başbakanlık Toplu Konutları 2. Etap Atakent Kültür ve Sanat Merkezi, 34307 Küçükçekmece\/İstanbul",
  "Location": "41.055237819604166, 28.785600320735014"
 },
 {
  "Province": "İstanbul",
  "District": "Küçükçekmece",
  "Name": "Küçükçekmece Kütüphaneleri",
  "Adress": "Halkalı Merkez, 34303 Küçükçekmece\/İstanbul",
  "Location": "41.0329274576463, 28.790114883468153"
 },
 {
  "Province": "İstanbul",
  "District": "Küçükçekmece",
  "Name": "Küçükçekmece Belediyesi Sefaköy Kültür ve Sanat Merkezi",
  "Adress": "Tevfik Bey, Maslak Çeşme Cad., 34295 Küçükçekmece\/İstanbul",
  "Location": "41.01556444363924, 28.797809634819718"
 },
 {
  "Province": "İstanbul",
  "District": "Küçükçekmece",
  "Name": "Atakent Kültür ve Sanat Merkezi",
  "Adress": "Atakent, Kent Blv., 34307 Küçükçekmece\/İstanbul",
  "Location": "41.05510541841807, 28.78573553404055"
 },
 {
  "Province": "İstanbul",
  "District": "Küçükçekmece",
  "Name": "Semt Konakları",
  "Adress": "İstasyon, Kırmızı Gül Sk., 34303 Küçükçekmece\/İstanbul",
  "Location": "41.02113114913715, 28.771348641347906"
 },
 {
  "Province": "İstanbul",
  "District": "Küçükçekmece",
  "Name": "Kemalpaşa Semt Konağı",
  "Adress": "Kemalpaşa, 34295 Küçükçekmece\/İstanbul",
  "Location": "41.00175610200103, 28.7916640997339"
 },
 {
  "Province": "İstanbul",
  "District": "Maltepe",
  "Name": "Yalçın Kızılay Spor Merkezi",
  "Adress": "Altayçeşme, Batı Sk. No:7, 34843 Maltepe\/İstanbul",
  "Location": "40.938051917562525, 29.127705260800813"
 },
 {
  "Province": "İstanbul",
  "District": "Maltepe",
  "Name": "Prof. Drç Türkan Saylan Küktür Merkezi",
  "Adress": "Gülsuyu, No: 34050, Gülsuyu Kavşağı No:100, 34848 Maltepe\/İstanbul",
  "Location": "40.92451772675736, 29.156734744224217"
 },
 {
  "Province": "İstanbul",
  "District": "Maltepe",
  "Name": "Cevizli Mahallesi Muhtarlığı",
  "Adress": "Cevizli, Gülnihal Sk. No:1, 34846 Maltepe\/İstanbul",
  "Location": "40.919279947173905, 29.15350041251875"
 },
 {
  "Province": "İstanbul",
  "District": "Maltepe",
  "Name": "Bağlarbaşı Mahallesi Muhtarlığı",
  "Adress": "Bağlarbaşı Mah. Atatürk Cad, Ahsen Çk. Sk. No:6, 34844 Maltepe",
  "Location": "40.92600436620919, 29.134356729605923"
 },
 {
  "Province": "İstanbul",
  "District": "Maltepe",
  "Name": "Gülsuyu Mahallesi Muhtarlığı",
  "Adress": "Gülsuyu, Gülsuyu Mh. Parkı No:11, 34848 Maltepe\/İstanbul",
  "Location": "40.92871994086307, 29.1550675710918"
 },
 {
  "Province": "İstanbul",
  "District": "Maltepe",
  "Name": "MALTEPE Feyzullah Mahallesi Muhtarlığı",
  "Adress": "Feyzullah, Yunus Emre Cd. No:9\/1, 34843 Maltepe\/İstanbul",
  "Location": "40.92726430572829, 29.127175299433492"
 },
 {
  "Province": "İstanbul",
  "District": "Maltepe",
  "Name": "Altayçeşme Mahallesi Muhtarlığı",
  "Adress": "Altayçeşme, Altayçeşme Muhtarlığı Parkı 4 A, 34843 Maltepe\/İstanbul",
  "Location": "40.93138209210032, 29.13006187087178"
 },
 {
  "Province": "İstanbul",
  "District": "Maltepe",
  "Name": "T.C. İstanbul İli Maltepe İlçesi Girne Mahallesi Muhtarlığı",
  "Adress": "Girne, Doğuşkent Cd. No:43, 34852 Maltepe\/İstanbul",
  "Location": "40.94245712300212, 29.141546873776797"
 },
 {
  "Province": "İstanbul",
  "District": "Maltepe",
  "Name": "T.C. Esenkent Mahalle MuhtarIığı",
  "Adress": "Esenkent, 34848 Maltepe\/İstanbul",
  "Location": "40.92713149692073, 29.167658798692575"
 },
 {
  "Province": "İstanbul",
  "District": "Maltepe",
  "Name": "T.C. MALTEPE İLÇESİ BAŞIBÜYÜK MAHALLE MUHTARLIĞI",
  "Adress": "Başıbüyük Mah, Başıbüyük Cd. No:90, 34854 Maltepe\/İstanbul",
  "Location": "40.958840108485525, 29.148401718392343"
 },
 {
  "Province": "İstanbul",
  "District": "Maltepe",
  "Name": "Yalı Mahallesi Muhtarlığı",
  "Adress": "Yalı, Küçükyalı Cd. No:21, 34844 Maltepe\/İstanbul",
  "Location": "40.92104693224407, 29.12945797256837"
 },
 {
  "Province": "İstanbul",
  "District": "Maltepe",
  "Name": "Gülensu Mahallesi Muhtarlığı",
  "Adress": "Gülensu, Ayla Cd. No:104, 34848 Maltepe\/İstanbul",
  "Location": "40.93550561591071, 29.162162767966656"
 },
 {
  "Province": "İstanbul",
  "District": "Maltepe",
  "Name": "Zümrütevler Mahalle Muhtarlığı",
  "Adress": "Zümrütevler, Tülin Cd. No:47, 34852 Maltepe\/İstanbul",
  "Location": "40.932709530951016, 29.150163863617394"
 },
 {
  "Province": "İstanbul",
  "District": "Maltepe",
  "Name": "Çınar Mahallesi Muhtarlığı",
  "Adress": "Çınar, Sosyal Sk. No:9, 34841 Maltepe\/İstanbul",
  "Location": "40.943556065062666, 29.114624525222943"
 },
 {
  "Province": "İstanbul",
  "District": "Maltepe",
  "Name": "Aydınevler Mahallesi Muhtarlığı",
  "Adress": "Aydınevler, Selçukbey Cd. No:9, 34854 Maltepe\/İstanbul",
  "Location": "40.94946953310934, 29.122959728012976"
 },
 {
  "Province": "İstanbul",
  "District": "Maltepe",
  "Name": "TC İstanbul İli Maltepe İlçesi Fındıklı Mahallesi Muhtarlığı",
  "Adress": "Fındıklı, Başıbüyük Yolu Cd., 34854 Maltepe\/İstanbul",
  "Location": "40.968216672936855, 29.124693375426457"
 },
 {
  "Province": "İstanbul",
  "District": "Maltepe",
  "Name": "İdealtepe Mahallesi Muhtarlığı",
  "Adress": "İdealtepe, İdealtepe 50. Yıl Korusu No:46, 34841 Maltepe\/İstanbul",
  "Location": "40.94106011041044, 29.121772816018368"
 },
 {
  "Province": "İstanbul",
  "District": "Maltepe",
  "Name": "Altıntepe Mahallesi Muhtarlığı",
  "Adress": "Altıntepe, Sırmakeş Sk. No:17, 34840 Maltepe\/İstanbul",
  "Location": "40.9516029570287, 29.10134007813501"
 },
 {
  "Province": "İstanbul",
  "District": "Maltepe",
  "Name": "Küçükyalı Mahallesi Muhtarlığı",
  "Adress": "Küçükyalı, Adile Hanım Sk. No:14, 34840 Maltepe\/İstanbul",
  "Location": "40.949271673341755, 29.114601926049204"
 },
 {
  "Province": "İstanbul",
  "District": "Pendik",
  "Name": "Pendik Belediyesi Güzelyalı Sosyal Tesisleri",
  "Adress": "Güzelyalı, Sahil Blv No:72, 34903 Pendik\/İstanbul",
  "Location": "40.85563286590124, 29.28018370089447",
  "Phone": " 0 (216) 494 43 14"
 },
 {
  "Province": "İstanbul",
  "District": "Pendik",
  "Name": "Dumlupınar, Dolayoba Dumlupınar Mh. Muhtarlığı, 34896 Pendik\/İstanbul",
  "Adress": "Dumlupınar, Dolayoba Dumlupınar Mh. Muhtarlığı, 34896 Pendik\/İstanbul",
  "Location": "40.89065412992505, 29.253586876960597"
 },
 {
  "Province": "İstanbul",
  "District": "Pendik",
  "Name": "Pendik Belediyesi Çınardere Hayaltepe Sosyal Tesisi",
  "Adress": "Çınardere, Mehtap Sk. No:13, 34896 Pendik\/İstanbul",
  "Location": "40.89839400616116, 29.24683729114221"
 },
 {
  "Province": "İstanbul",
  "District": "Sancaktepe",
  "Name": "Samandıra Prof. Dr. Necmettin Erbekan Külliyesi",
  "Adress": "Abdurrahmangazi, Abdurrahman Gazi Cd., 34887 Dudullu Osb\/Sancaktepe\/İstanbul",
  "Location": "40.98772801278987, 29.228954586979764"
 },
 {
  "Province": "İstanbul",
  "District": "Sancaktepe",
  "Name": "Yenidoğan Kadir Topbaş Kültür Merkezi",
  "Adress": "Yunus Emre, No:, Barbaros Blv. No:6, 34791 Sancaktepe\/İstanbul",
  "Location": "41.014853166711895, 29.244768718269082"
 },
 {
  "Province": "İstanbul",
  "District": "Sancaktepe",
  "Name": "Sancaptepe Kaymakanlığı Sostal Yardımlaşma Vakfı",
  "Adress": "Meclis, Atatürk Cd. No:111, 34785 Sancaktepe\/İstanbul",
  "Location": "41.00914619789517, 29.210989756659366"
 },
 {
  "Province": "İstanbul",
  "District": "Sarıyer",
  "Name": "Ayazağa Rauf Denktas Kültür Merkezi",
  "Adress": "Ayazağa, Naci Canan Tuncer Sk., 34396 Sarıyer\/İstanbul",
  "Location": "41.11671626542454, 29.00095109592127"
 },
 {
  "Province": "İstanbul",
  "District": "Sarıyer",
  "Name": "Ana Hizmet Binası C Blok",
  "Adress": "Pınar, Günyüzü Sk. No:2, 34460 Sarıyer\/İstanbul",
  "Location": "41.11189381753085, 29.02695205885541"
 },
 {
  "Province": "İstanbul",
  "District": "Silivri",
  "Name": "Yunus Emre İmam Hatip Ortaokulu Spor Salonu",
  "Adress": "Uğur Mumcu, 2138. Sk. No:1, 34265 Sultangazi\/İstanbul",
  "Location": "41.09895810797762, 28.86877057331514"
 },
 {
  "Province": "İstanbul",
  "District": "Sultanbeyli",
  "Name": "Sultanbeyli Spor Salonu Önü",
  "Adress": "Battalgazi, Kubbe Cd. No:5, 34935 Sultanbeyli\/İstanbul",
  "Location": "40.98399635174327, 29.26891924260921"
 },
 {
  "Province": "İstanbul",
  "District": "Sultanbeyli",
  "Name": "Sultanbeyli Kent Meydanı",
  "Adress": "Mehmet Akif, Fatih Blv. No: 137\/9, 34885 Sultanbeyli\/İstanbul",
  "Location": "40.96746544452051, 29.265765591066245"
 },
 {
  "Province": "İstanbul",
  "District": "Sultangazi",
  "Name": "Özdemir Bayraktar Kültür Merkezi",
  "Adress": "Eski Habipler, Orkideler Cd. no:28, 34270 Sultangazi\/İstanbul",
  "Location": "41.13110621949502, 28.829733830516393"
 },
 {
  "Province": "İstanbul",
  "District": "Şişli",
  "Name": "Şişli Belediyesi Ana Hizmet Binası",
  "Adress": "Merkez, Darülaceze Cd. No:8, 34381 Şişli\/İstanbul",
  "Location": "41.06428388747302, 28.98326650996847"
 },
 {
  "Province": "İstanbul",
  "District": "Üsküdar",
  "Name": "Üsküdar Belediyesi İktisadi ve Sosyal Tesisler",
  "Adress": "Mimar Sinan, Dr. Fahri Atabey Cd. No:9, 34672 Üsküdar\/İstanbul",
  "Location": "41.02139669337127, 29.017094521665637"
 },
 {
  "Province": "İstanbul",
  "District": "Pendik",
  "Name": "Kurna Piknik Alanı",
  "Adress": "Kurna Piknik Alanı - Kurna Mah. Anadolu Yolu Cad. No:63",
  "Location": "40.9474621566199, 29.33789538651171",
  "Phone": " 444 81 80 - 5110"
 },
 {
  "Province": "İstanbul",
  "District": "Pendik",
  "Name": "Pencr Bahçe",
  "Adress": "Pencr Bahçe - Yenişehir Mah. Tavukçuyolu Cad. (Yenişehir Mesire Alanı İçi)",
  "Location": "40.94595345660829, 29.30697279372457",
  "Phone": "444 81 80 - 5110"
 },
 {
  "Province": "İstanbul",
  "District": "Pendik",
  "Name": "Pencr Burun",
  "Adress": "Pencr Burun - Batı Mah. Geziboyu Caddesi No: 52",
  "Location": "40.871529004406604, 29.22877462889689",
  "Phone": "0 (216) 491 11 08"
 },
 {
  "Province": "İstanbul",
  "District": "Pendik",
  "Name": "Pencr Çarş",
  "Adress": "Pencr Çarşı - Batı Mah. İsmetpaşa Cad. No: 2  (MAE Sanat Merkezi Yanı)",
  "Location": "40.87899059297911, 29.232119302601856",
  "Phone": "444 81 80 "
 },
 {
  "Province": "İstanbul",
  "District": "Pendik",
  "Name": "Pencr Hayaltepe",
  "Adress": "Pencr Hayaltepe - Çınardere Mh. Mehtap Sk. No:15 (Pendik Spor Tesisleri Yanı)",
  "Location": "40.89834423791467, 29.246770601098355",
  "Phone": "-"
 },
 {
  "Province": "İstanbul",
  "District": "Pendik",
  "Name": "Pencr Köfte",
  "Adress": "Pencr Köfte - Batı Mah. Erol Kaya Cad. No: 12",
  "Location": "40.87791402114431, 29.222516193797432",
  "Phone": "444 81 80"
 },
 {
  "Province": "İstanbul",
  "District": "Pendik",
  "Name": "Yenişehir Piknik Alanı -",
  "Adress": "Yenişehir Piknik Alanı - Yenişehir Mah. Tavukçu Yolu Cad.",
  "Location": "40.94477327385808, 29.30656693884662",
  "Phone": "0 (216) 491 71 54"
 },
 {
  "Province": "İstanbul",
  "District": "ADALAR",
  "Name": "İlçe Gençlik Hizmetleri ve Spor Müdürlüğü",
  "Adress": "Nizam Mahallesi Çankaya Caddesi Albayrak sokak No:16",
  "Location": "40.87138457154453, 29.12292477168332",
  "Phone": "0216 382 26 84"
 },
 {
  "Province": "İstanbul",
  "District": "ARNAVUTKÖY",
  "Name": "Arnavutköy Kaymakamlığı",
  "Adress": "Taşoluk mah. Akbaba sokak No:3 (34283) Arnavutköy",
  "Location": "41.18646984002173, 28.716107188556705",
  "Phone": "0212 890 12 09"
 },
 {
  "Province": "İstanbul",
  "District": "ATAŞEHİR",
  "Name": "Ataşehir Kaymakamlığı",
  "Adress": "Küçükbakkalköy Mah. Merdivenköy Yolu Sok. No:9\/2 Ataşehir\/İstanbul",
  "Location": "40.982178482699105, 29.107747812439108",
  "Phone": "0216 469 17 16"
 },
 {
  "Province": "İstanbul",
  "District": "AVCILAR",
  "Name": "GSB Avcılar Gençlik Merkezi",
  "Adress": "Gümüşpala mh. Alsancak i.ö.o bitişiği.",
  "Location": "40.98135086319823, 28.746370567139344",
  "Phone": "0212 509 16 83"
 },
 {
  "Province": "İstanbul",
  "District": "BAĞCILAR",
  "Name": "BAĞCILAR GENÇLİK VE SPOR İLÇE MÜDÜRLÜĞÜ OLİMPİK SPOR SALONU",
  "Adress": "Fevzi Çakmak mh.Fatih cd. No:50\/A Bağcılar Olimpik Spor Salonu",
  "Location": "41.04206859646138, 28.85412641782771",
  "Phone": "0212 634 18 37"
 },
 {
  "Province": "İstanbul",
  "District": "BAHÇELİEVLER",
  "Name": "Şehit Mustafa Özel Spor Kompleksi",
  "Adress": "Fevzi Çakmak Mh. Çakmak Sk. No:9-11 Bahçelievler\/İstanbul",
  "Location": "40.99708685093949, 28.833618895345857",
  "Phone": "0212 451 67 47"
 },
 {
  "Province": "İstanbul",
  "District": "BAKIRKÖY",
  "Name": "Ataköy Uluslararası Gençlik Merkezi",
  "Adress": "Ataköy 9. kısım Mimar Basri Mete Sokağı No:10\/12 Bakırköy\/İstanbul\n",
  "Location": "40.98945219847141, 28.832065526404666",
  "Phone": "0212 559 48 19"
 },
 {
  "Province": "İstanbul",
  "District": "BAŞAKŞEHİR",
  "Name": "Başakşehir Gençlik ve Spor İlçe Müdürlüğü Tesisleri",
  "Adress": "Kayabaşı Mahallesi Tınaztepe Caddesi No:6 Başakşehir\/İstanbul",
  "Location": "41.1227743927365, 28.77812742623069",
  "Phone": "0212 488 16 65"
 },
 {
  "Province": "İstanbul",
  "District": "BAYRAMPAŞA",
  "Name": "Çetin Emeç Stadyumu.",
  "Adress": "Altıntepsi mh. Uygur cd. Çetin Emeç Stadyumu.\n\n",
  "Location": "41.03770457112195, 28.906029079755097",
  "Phone": "0212 544 02 38"
 },
 {
  "Province": "İstanbul",
  "District": "BEŞİKTAŞ",
  "Name": "Beşiktaş Gençlik ve Spor Müdürlüğü",
  "Adress": "Mecidiye mahallesi Palanga caddesi No:20 Ortaköy\/Beşiktaş\n\n",
  "Location": "41.0486338097335, 29.022004134227096",
  "Phone": "0212 259 26 18"
 },
 {
  "Province": "İstanbul",
  "District": "BEYLİKDÜZÜ",
  "Name": "Beylikdüzü Spor Kompleksi",
  "Adress": "Beylikdüzü Spor Kompleksi Büyükşehir Mah.19 Mayıs cad.Gonca Sok.Beylikdüzü \/İstanbul",
  "Location": "41.00259048236596, 28.64455875609006",
  "Phone": "0212 872 47 21"
 },
 {
  "Province": "İstanbul",
  "District": "BEYOĞLU",
  "Name": "Kasımpaşa Stadyumu",
  "Adress": "Recep Tayyip Erdoğan Stadyumu Tepebaşı caddesi Beyoğlu \/ İstanbul\n\n",
  "Location": "41.032672975470696, 28.972564978949055",
  "Phone": "0212 235 98 24"
 },
 {
  "Province": "İstanbul",
  "District": "BÜYÜKÇEKMECE",
  "Name": "GSB Büyükçekmece",
  "Adress": "19 Mayıs mh. Okul sk. no: 6 Askerlik Şubesi Arkası.\n",
  "Location": "41.02695252830489, 28.59074015785201",
  "Phone": "0212 883 00 20"
 },
 {
  "Province": "İstanbul",
  "District": "BEYKOZ",
  "Name": "GSB Beykoz",
  "Adress": "Merkez Mah. Mehmet Yavuz Cad. No:19 BEYKOZ",
  "Location": "41.13418214136701, 29.093867887034662",
  "Phone": "0216 424 13 09"
 },
 {
  "Province": "İstanbul",
  "District": "ÇATALCA",
  "Name": "GSB Çatalca",
  "Adress": "Gençlik sk. Ziya Altınoğlu Stadyumu Çatalca\n",
  "Location": "41.14543715891482, 28.461937852238343",
  "Phone": "0212 789 27 70"
 },
 {
  "Province": "İstanbul",
  "District": "ÇEKMEKÖY",
  "Name": "Çekmeköy Gençlik Hizmetleri Ve Spor İlçe Müdürlüğü Alemdağ Stadı",
  "Adress": "Alemdağ Stadyumu",
  "Location": "41.04811633265065, 29.23360125437445",
  "Phone": "0216 312 07 56"
 },
 {
  "Province": "İstanbul",
  "District": "ESENLER",
  "Name": "Esenler Erok Stadı",
  "Adress": " Kemer Mah. 939 sokak No:27 Esenler\/ İstanbul\n",
  "Location": "41.05394318449444, 28.87996878307809",
  "Phone": "0505 275 25 46"
 },
 {
  "Province": "İstanbul",
  "District": "ESENYURT",
  "Name": "Esenyurt Kaymakamlığı",
  "Adress": "T.C. Yeni Esenyurt Kaymakamlığı Zafer Mahallesi Deniz Gezmiş Caddesi No:1 Kat:7 Esenyurt ",
  "Location": "41.019439093615134, 28.686930988786226",
  "Phone": "0212 699 64 56 "
 },
 {
  "Province": "İstanbul",
  "District": "EYÜPSULTAN",
  "Name": "Eyüpsultan Kaymakamlığı",
  "Adress": "Eyüpsultan Kaymakamlığı İslambey Mahallesi Hz.Halit Bulvarı No.26\/1 B Blok Kat.3 Eyüpsultan",
  "Location": "41.046727481101215, 28.930977067368552",
  "Phone": "0212 564 95 45"
 },
 {
  "Province": "İstanbul",
  "District": "FATİH",
  "Name": "Kaymakamlik Şubesi",
  "Adress": "Karagümrük mahallesi Adnan Menderes Bulvarı Fatih Kaymakamlık Binası B blok 1. Kat \/ FATİH",
  "Location": "41.0220130994897, 28.934031351465144",
  "Phone": "0212 631 78 82"
 },
 {
  "Province": "İstanbul",
  "District": "GAZİOSMANPAŞA",
  "Name": "Gaziosmanpaşa Kaymakamlık Binası",
  "Adress": "Merkez Mah. Çukurçeşme Caddesi No:10\/12 Gaziosmanpaşa Kaymakamlık Binası 3.Kat",
  "Location": "41.05854931271138, 28.91135449551723",
  "Phone": "0212 618 73 07"
 },
 {
  "Province": "İstanbul",
  "District": "GÜNGÖREN",
  "Name": "Güngören spor kompleksi",
  "Adress": "Merkez mah. fevzi çakmak cad. No:19 Güngören Spor Kompleksi",
  "Location": "41.023810569907155, 28.871038114970958",
  "Phone": "0212 556 09 98 - 0212 507 79 33"
 },
 {
  "Province": "İstanbul",
  "District": "GÜNGÖREN",
  "Name": "GSB Güngören",
  "Adress": "Tozkoparan Mah. Cevataçıkalın Cad. Erdemli Sok. No: 4",
  "Location": "41.01161556928113, 28.89530518246417",
  "Phone": "0212 481 84 02"
 },
 {
  "Province": "İstanbul",
  "District": "KADIKÖY",
  "Name": "Caferağa Spor Salonu",
  "Adress": "Caferağa mh. Caferağa Spor Salonu Kadıköy",
  "Location": "40.988228714811406, 29.026339392978976",
  "Phone": "0216 347 32 50"
 },
 {
  "Province": "İstanbul",
  "District": "KAĞITHANE",
  "Name": "Mendi Sansak Futbol Sahası",
  "Adress": "Yeşilce Mahallesi Yunus Emre Caddesi Mehdi Sancak Stadı 10\/4 Kağıthane",
  "Location": "41.09368106070482, 29.002960163357933",
  "Phone": "0212 281 10 23"
 },
 {
  "Province": "İstanbul",
  "District": "KARTAL",
  "Name": "YAKACIK İTO SPOR SALONU",
  "Adress": "Cumhuriyet mh. Zeytinlik cd. Seza sk. İTO\n\n",
  "Location": "40.90722628807813, 29.22062986708843",
  "Phone": "0216 309 94 94"
 },
 {
  "Province": "İstanbul",
  "District": "KÜÇÜKÇEKMECE",
  "Name": "Osman Solakoğlu Spor Kompleksi ve Küçükçekmece Gençlik Hizmetleri ve Spor İlçe Müdürlüğü",
  "Adress": "Halkalı T.K. 3. Etap Osman Solakoğlu Spor Salonu.",
  "Location": "41.05827272881329, 28.77949838030954",
  "Phone": "0212 698 95 44"
 },
 {
  "Province": "İstanbul",
  "District": "MALTEPE",
  "Name": "Maltepe Spor Kompleksi",
  "Adress": "Girne Mah. Narlıdere Caddesi No:21 Maltepe ",
  "Location": "40.9430101997604, 29.139886438670548",
  "Phone": "0216 367 42 33"
 },
 {
  "Province": "İstanbul",
  "District": "MALTEPE",
  "Name": "HASAN POLAT STADI",
  "Adress": "Yalı mh.Şehit Nedim Polat sk. no:2 Maltepe",
  "Location": "40.92040909805799, 29.13128188199227",
  "Phone": "0216 399 46 00"
 },
 {
  "Province": "İstanbul",
  "District": "PENDİK",
  "Name": "Kurtköy Kapalı Spor Salonu",
  "Adress": "Kurtköy Kapalı Spor Salonu Lise cd. No:3",
  "Location": "40.91293131058843, 29.295730957936826",
  "Phone": "0216 378 82 64"
 },
 {
  "Province": "İstanbul",
  "District": "SANCAKTEPE",
  "Name": "SANCAKTEPE GENÇLiK HiZMETLERi VE SPOR iLÇE MÜDÜRLÜĞÜ YENiDOĞAN SPOR SALONU",
  "Adress": "Yenidoğan Spor Salonu\/Yunus Emre Mahallesi Barbaros Bulvarı No:8 Sancaktepe",
  "Location": "41.015493701548515, 29.245924035260707",
  "Phone": "0216 311 13 70"
 },
 {
  "Province": "İstanbul",
  "District": "SARIYER",
  "Name": "Sariyer Gençlik Hizmetleri Ve Spor İlçe Müdürlüğü Sariyer Spor Salonu",
  "Adress": "Nalbantçeşme Cad. Şifa Suyu Yolu Üzeri No:70 Sarıyer",
  "Location": "41.172989520713664, 29.051074249656075",
  "Phone": "0212 242 24 26"
 },
 {
  "Province": "İstanbul",
  "District": "SİLİVRİ",
  "Name": "Alibey Spor Salonu",
  "Adress": "Sait Girgin Cd. No:37 - Alibey Kapalı Spor Salonu",
  "Location": "41.08923111393734, 28.263312930578397",
  "Phone": "0212 727 46 15"
 },
 {
  "Province": "İstanbul",
  "District": "SULTANBEYLİ",
  "Name": "Battalgazi, Kubbe Cd. No:5, 34935 Sultanbeyli\/İstanbul",
  "Adress": "Battalgazi mh. Kubbe cd. No :3 Sultanbeyli.",
  "Location": "40.983249795304864, 29.267800877963865",
  "Phone": "0216 592 00 76"
 },
 {
  "Province": "İstanbul",
  "District": "SULTANGAZİ",
  "Name": "Sultangazi Hükümet Konağı",
  "Adress": "Uğurmumcu Mahallesi Atatürk Bulvarı\nNo :58 Kat :4 Sultangazi \/İstanbul",
  "Location": "41.10870038709344, 28.87726961301868",
  "Phone": "0212 619 52 76"
 },
 {
  "Province": "İstanbul",
  "District": "ŞİLE",
  "Name": "Gençlik Ve Spor İl Müdürlüğü Şile Stadı",
  "Adress": "Kordonboyu cd. Plaj Yolu 34980 Şile.",
  "Location": "41.17452789067708, 29.604893088732876",
  "Phone": "0216 711 39 40"
 },
 {
  "Province": "İstanbul",
  "District": "ŞİŞLİ",
  "Name": "Şişli Kaymakamlığı",
  "Adress": "Şişli Kaymakamlık Ek Hizmet Binası 4. kat Merkez Mah. Abide-i Hürriyet Cad. No .175 Şişli",
  "Location": "41.0626173747725, 28.987513987084352",
  "Phone": "-"
 },
 {
  "Province": "İstanbul",
  "District": "TUZLA",
  "Name": "Tuzla Belediyesi Ek Hizmet Binası",
  "Adress": "Cami mah. Cumhuriyet Cad. No:99 Belediye Ek Hizmet Binası-Tuzla",
  "Location": "40.89561957887154, 29.356238418454215",
  "Phone": "0216 447 04 15"
 },
 {
  "Province": "İstanbul",
  "District": "ÜMRANİYE",
  "Name": "Parseller Muhtarliği",
  "Adress": "Parseller Mah. Nida Sk.No:9 Ümraniye\/İstanbul",
  "Location": "41.029582355112304, 29.157615276568112",
  "Phone": "0216 611 72 57"
 },
 {
  "Province": "İstanbul",
  "District": "ÜSKÜDAR",
  "Name": "Üsküdar Gençlik ve Spor İlçe Müdürlüğü",
  "Adress": "Barbaros Mah. Alaattin Yavaşça Sk. No:10 Kat:4 Üsküdar",
  "Location": "41.012984921053224, 29.03061226750835",
  "Phone": "0216 651 62 62"
 },
 {
  "Province": "İstanbul",
  "District": "Zeytinburnu",
  "Name": "Zeytinburnu Kaymakamlığı",
  "Adress": "Zeytinburnu Kaymakamlığı",
  "Location": "40.99470096155074, 28.904679037887277",
  "Phone": "0212 664 06 43"
 },
 {
  "Province": "İstanbul",
  "District": "Zeytinburnu",
  "Name": "Adile Mermerci anadolu lisesi spor salonu",
  "Adress": "Zeytinburnu Adile Mermerci Anadolu Lisesi\n56. Sk. 67\n34025 Zeytinburnu İstanbul\nTürkiye",
  "Location": "40.99079923741243, 28.898019932842335",
  "Phone": "444 1984"
 },
 {
  "Province": "İstanbul",
  "District": "Şişli",
  "Name": "Oda Tiyatrosu",
  "Adress": "Ömür Sk. 8\n34381 Şişli İstanbul\nTürkiye",
  "Location": "41.0678915088637, 28.99138498363453"
 },
 {
  "Province": "İstanbul",
  "District": "Bakırköy",
  "Name": "Oğuzkaan Bakırköy (İncirli)",
  "Adress": "Kartaltepe Mahallesi İncirli Caddesi No:84\/A İç Kapı No:1,34145 Bakırköy\/İstanbul",
  "Location": "40.9910219919312, 28.870746880997125"
 },
 {
  "Province": "İstanbul",
  "District": "Ataşehir",
  "Name": "Aydın Doğan Güzel Sanatlar Lisesi",
  "Adress": "Örnek Mahallesi,Neyzen Salim Bey Sk. No:24,Ataşehir",
  "Location": "40.993247456553846, 29.07524917572737"
 },
 {
  "Province": "İstanbul",
  "District": "Eyüpsultan",
  "Name": "Rami Atatürk Anadolu Lisesi ",
  "Adress": "Rami Yeni,Reşadiye Cd. No:17, 34055 Eyüpsultan\/İstanbul",
  "Location": "41.05229719521954, 28.916486541279582"
 },
 {
  "Province": "Kocaeli",
  "District": "Darıca",
  "Name": "Özel Seymen Koleji",
  "Adress": "Piri Reis, Piri Reis Mahallesi Bağdat Caddesi Berke Sokak No:40,41700 Darıca\/Kocaeli",
  "Location": "40.77373680411539, 29.3657889562187"
 },
 {
  "Province": "İstanbul",
  "District": "Bakırköy",
  "Name": "Bakırköy Belediyesi Atatürk Spor ve Yaşam Köyü Kapalı Spor Salonu",
  "Adress": "Osmaniye,34146 Bakırköy\/İstanbul",
  "Location": "40.996911409530604, 28.883440054529938"
 },
 {
  "Province": "İstanbul",
  "District": "Beşiktaş",
  "Name": "Mustafa Kemal Kültür Merkezi",
  "Adress": "Akat, Uğur Mumcu Cd. No:8 D:No:8, 34335 Beşiktaş\/İstanbul",
  "Location": "41.09201887006638, 29.028121140264197"
 },
 {
  "Province": "İstanbul",
  "District": "Beşiktaş",
  "Name": "Zübeyde Ana Kültür Merkezi",
  "Adress": "Levent,Çalıkuşu Sokak D:No:2 34330 Beşiktaş\/İsatanbul",
  "Location": "41.07627181571508, 29.01847949944981"
 },
 {
  "Province": "İstanbul",
  "District": "Beşiktaş",
  "Name": "Süleyman Seba Kültür Merkezi ",
  "Adress": "Dikilitaş,Hakkı Yeten Caddesi No:10, 34394 Beşiktaş\/İstanbul",
  "Location": "41.05506668188267, 28.999288815488697"
 },
 {
  "Province": "İstanbul",
  "District": "Beşiktaş",
  "Name": "Sakıp Sabancı Anadolu Lisesi",
  "Adress": "Yıldız, Yıldız Cd. No:73, 34349 Beşiktaş\/İstanbul",
  "Location": "41.050348154753635, 29.008113013885"
 },
 {
  "Province": "İstanbul",
  "District": "Bakırköy",
  "Name": "Bakırköy Adliyesi",
  "Adress": "Osmaniye, İsmail Erez Blv, 34146 Bakırköy\/İstanbul",
  "Location": "40.99583424513588, 28.878879460792188"
 },
 {
  "Province": "İstanbul",
  "District": "Fatih ",
  "Name": "Oğuzkaan Koleji - Çapa",
  "Adress": "Aşağı, Molla Gürani Mahallesi, Gureba Hastanesi Cd, 34093 Fatih",
  "Location": "41.016547745377686, 28.937408498471324"
 },
 {
  "Province": "İstanbul",
  "District": "Maltepe",
  "Name": "Oğuzkaan Koleji - Maltepe",
  "Adress": "Gülsuyu, Fevzi Çakmak Cd. No:1, 34848 Maltepe\/İstanbul",
  "Location": "40.925561448366025, 29.154643534921565"
 },
 {
  "Province": "İstanbul",
  "District": "Bahçelievler",
  "Name": "Oğuzkaan Koleji - Bahçelievler",
  "Adress": "Bahçelievler Merkez, Talatpaşa Cd No:2, 34180 Bahçelievler\/İstanbul",
  "Location": "41.00351610791053, 28.865290878810402"
 },
 {
  "Province": "İstanbul",
  "District": "Küçükçekmece",
  "Name": "Oğuzkaan Koleji - Halkalı",
  "Adress": "Atakent, 231. Sk. No:6, 34307 Küçükçekmece\/İstanbul",
  "Location": "41.04347445797657, 28.778434286246718"
 },
 {
  "Province": "İstanbul",
  "District": "Başakşehir",
  "Name": "Oğuzkaan Koleji - Bahçeşehir",
  "Adress": "Bahçeşehir 1. Kısım, Mahallesi, Çoruh Sk., 34448 Başakşehir\/İstanbul",
  "Location": "41.06759677024713, 28.699048186378345"
 },
 {
  "Province": "İstanbul",
  "District": "Beylikdüzü",
  "Name": "Oğuzkaan Koleji - Beylikdüzü",
  "Adress": "Adnan Kahveci, Şişhane Cd. No:4 \/ 1, 34528 Beylikdüzü\/İstanbul",
  "Location": "40.99298074874346, 28.62684290104242"
 },
 {
  "Province": "İstanbul",
  "District": "Başakşehir",
  "Name": "Oğuzkaan Koleji - Başakşehir",
  "Adress": "Kayaşehir Bulvarı, Ulubatlı Hasan Cd, 34782 Başakşehir",
  "Location": "41.10375522090311, 28.767731528472343"
 },
 {
  "Province": "İstanbul",
  "District": "Büyükçekmece",
  "Name": "İstanbul Üniversitesi-Cerrahpaşa Büyükçekmece Yerleşkesi",
  "Adress": "Kampüs Koordinatörlüğü, Karaagaç, 34500 Büyükçekmece\/İstanbul",
  "Location": "41.09054207459941, 28.620659272792125"
 },
 {
  "Province": "İstanbul",
  "District": "Avcılar",
  "Name": "İstanbul Üniversitesi-Cerrahpaşa Avcılar Yerleşkesi",
  "Adress": "Öğrenci Kültür Merkezi, Üniversite, 34320 Avcılar\/İstanbul",
  "Location": "40.98854208930231, 28.726691737577738"
 },
 {
  "Province": "İstanbul",
  "District": "Fatih ",
  "Name": "İstanbul Üniversitesi-Cerrahpaşa Cerrahpaşa Tıp Fakültesi\n",
  "Adress": "Türkçe Tıp Binası, Cerrahpaşa, 34098 Fatih\/İstanbul",
  "Location": "41.004563785815215, 28.94111347316794"
 }
]